[{
  "id": "c1s1",
  "courseId": "c1",
  "name": "Section 1: Welcome to Reactjs",
  "data": [{
    "id": "c1pl1",
    "name": "Welcome to the course",
    "hours": "5:35",
    "videoUrl": "https://www.radiantmediaplayer.com/media/bbb-360p.mp4"
  }, {
    "id": "c1pl2",
    "name": "Reactjs introduction",
    "hours": "19:04",
    "videoUrl": "http://commondatastorage.googleapis.com/gtv-videos-bucket/sample/ElephantsDream.mp4"
  }, {
    "id": "c1pl3",
    "name": "Design - Flexbox",
    "hours": "5:35",
    "videoUrl": "http://commondatastorage.googleapis.com/gtv-videos-bucket/sample/ForBiggerBlazes.mp4"
  }, {
    "id": "c1pl4",
    "name": "Reactjs router",
    "hours": "12:48",
    "videoUrl": "http://commondatastorage.googleapis.com/gtv-videos-bucket/sample/ForBiggerEscapes.mp4"
  }, {
    "id": "c1pl5",
    "name": "State management",
    "hours": "37:54",
    "videoUrl": "http://commondatastorage.googleapis.com/gtv-videos-bucket/sample/ForBiggerFun.mp4"
  }]
}, {
  "id": "c1s2",
  "courseId": "c1",
  "name": "Section 2: Begin with Reactjs",
  "data": [{
    "id": "c1pl11",
    "name": "Welcome to the course",
    "hours": "5:35",
    "videoUrl": "https://www.radiantmediaplayer.com/media/bbb-360p.mp4"
  }, {
    "id": "c1pl2",
    "name": "Reactjs introduction",
    "hours": "19:04",
    "videoUrl": "http://commondatastorage.googleapis.com/gtv-videos-bucket/sample/ElephantsDream.mp4"
  }, {
    "id": "c1pl3",
    "name": "Design - Flexbox",
    "hours": "5:35",
    "videoUrl": "http://commondatastorage.googleapis.com/gtv-videos-bucket/sample/ForBiggerBlazes.mp4"
  }, {
    "id": "c1pl4",
    "name": "Reactjs router",
    "hours": "12:48",
    "videoUrl": "http://commondatastorage.googleapis.com/gtv-videos-bucket/sample/ForBiggerEscapes.mp4"
  }, {
    "id": "c1pl5",
    "name": "State management",
    "hours": "37:54",
    "videoUrl": "http://commondatastorage.googleapis.com/gtv-videos-bucket/sample/ForBiggerFun.mp4"
  }]
}, {
  "id": "c1s3",
  "courseId": "c1",
  "name": "Section 3: Practice with React Native",
  "data": [{
    "id": "c1pl21",
    "name": "Welcome to the course",
    "hours": "5:35",
    "videoUrl": "https://www.radiantmediaplayer.com/media/bbb-360p.mp4"
  }, {
    "id": "c1pl22",
    "name": "Reactjs introduction",
    "hours": "19:04",
    "videoUrl": "http://commondatastorage.googleapis.com/gtv-videos-bucket/sample/ElephantsDream.mp4"
  }, {
    "id": "c1p23",
    "name": "Design - Flexbox",
    "hours": "5:35",
    "videoUrl": "http://commondatastorage.googleapis.com/gtv-videos-bucket/sample/ForBiggerBlazes.mp4"
  }, {
    "id": "c1p24",
    "name": "Reactjs router",
    "hours": "12:48",
    "videoUrl": "http://commondatastorage.googleapis.com/gtv-videos-bucket/sample/ForBiggerEscapes.mp4"
  }, {
    "id": "c1p25",
    "name": "State management",
    "hours": "37:54",
    "videoUrl": "http://commondatastorage.googleapis.com/gtv-videos-bucket/sample/ForBiggerFun.mp4"
  }]
}, {
  "id": "c2s1",
  "courseId": "c2",
  "name": "Section 1: Welcome to Javascript",
  "data": [{
    "id": "c2pl1",
    "name": "Welcome to the course",
    "hours": "5:35",
    "videoUrl": "https://www.radiantmediaplayer.com/media/bbb-360p.mp4"
  }, {
    "id": "c2pl2",
    "name": "Javascript introduction",
    "hours": "19:04",
    "videoUrl": "http://commondatastorage.googleapis.com/gtv-videos-bucket/sample/ElephantsDream.mp4"
  }, {
    "id": "c2pl3",
    "name": "Design - Flexbox",
    "hours": "5:35",
    "videoUrl": "http://commondatastorage.googleapis.com/gtv-videos-bucket/sample/ForBiggerBlazes.mp4"
  }, {
    "id": "c2pl4",
    "name": "Simple tag",
    "hours": "12:48",
    "videoUrl": "http://commondatastorage.googleapis.com/gtv-videos-bucket/sample/ForBiggerEscapes.mp4"
  }, {
    "id": "c2pl5",
    "name": "Advanced features",
    "hours": "37:54",
    "videoUrl": "http://commondatastorage.googleapis.com/gtv-videos-bucket/sample/ForBiggerFun.mp4"
  }]
}, {
  "id": "c2s2",
  "courseId": "c2",
  "name": "Section 2: Begin with Javascript",
  "data": [{
    "id": "c2pl21",
    "name": "Welcome to the course",
    "hours": "5:35",
    "videoUrl": "https://www.radiantmediaplayer.com/media/bbb-360p.mp4"
  }, {
    "id": "c2pl22",
    "name": "Javascript introduction",
    "hours": "19:04",
    "videoUrl": "http://commondatastorage.googleapis.com/gtv-videos-bucket/sample/ElephantsDream.mp4"
  }, {
    "id": "c2p23",
    "name": "Design - Flexbox",
    "hours": "5:35",
    "videoUrl": "http://commondatastorage.googleapis.com/gtv-videos-bucket/sample/ForBiggerBlazes.mp4"
  }, {
    "id": "c2p24",
    "name": "Simple tag",
    "hours": "12:48",
    "videoUrl": "http://commondatastorage.googleapis.com/gtv-videos-bucket/sample/ForBiggerEscapes.mp4"
  }, {
    "id": "c2p25",
    "name": "Advanced features",
    "hours": "37:54",
    "videoUrl": "http://commondatastorage.googleapis.com/gtv-videos-bucket/sample/ForBiggerFun.mp4"
  }]
}, {
  "id": "c3s1",
  "courseId": "c3",
  "name": "Section 1: Welcome to HTML",
  "data": [{
    "id": "c3pl1",
    "name": "Welcome to the course",
    "hours": "5:35",
    "videoUrl": "https://www.radiantmediaplayer.com/media/bbb-360p.mp4"
  }, {
    "id": "c3pl2",
    "name": "HTML introduction",
    "hours": "19:04",
    "videoUrl": "http://commondatastorage.googleapis.com/gtv-videos-bucket/sample/ElephantsDream.mp4"
  }, {
    "id": "c3pl3",
    "name": "Design - Flexbox",
    "hours": "5:35",
    "videoUrl": "http://commondatastorage.googleapis.com/gtv-videos-bucket/sample/ForBiggerBlazes.mp4"
  }, {
    "id": "c3pl4",
    "name": "Simple tag",
    "hours": "12:48",
    "videoUrl": "http://commondatastorage.googleapis.com/gtv-videos-bucket/sample/ForBiggerEscapes.mp4"
  }, {
    "id": "c3pl5",
    "name": "Advanced features",
    "hours": "37:54",
    "videoUrl": "http://commondatastorage.googleapis.com/gtv-videos-bucket/sample/ForBiggerFun.mp4"
  }]
}, {
  "id": "c3s2",
  "courseId": "c3",
  "name": "Section 2: Begin with HTML",
  "data": [{
    "id": "c3pl21",
    "name": "Welcome to the course",
    "hours": "5:35",
    "videoUrl": "https://www.radiantmediaplayer.com/media/bbb-360p.mp4"
  }, {
    "id": "c3pl22",
    "name": "HTML introduction",
    "hours": "19:04",
    "videoUrl": "http://commondatastorage.googleapis.com/gtv-videos-bucket/sample/ElephantsDream.mp4"
  }, {
    "id": "c3p23",
    "name": "Design - Flexbox",
    "hours": "5:35",
    "videoUrl": "http://commondatastorage.googleapis.com/gtv-videos-bucket/sample/ForBiggerBlazes.mp4"
  }, {
    "id": "c3p24",
    "name": "Simple tag",
    "hours": "12:48",
    "videoUrl": "http://commondatastorage.googleapis.com/gtv-videos-bucket/sample/ForBiggerEscapes.mp4"
  }, {
    "id": "c3p25",
    "name": "Advanced features",
    "hours": "37:54",
    "videoUrl": "http://commondatastorage.googleapis.com/gtv-videos-bucket/sample/ForBiggerFun.mp4"
  }]
}, {
  "id": "c4s1",
  "courseId": "c4",
  "name": "Section 1: Welcome to Web assembly",
  "data": [{
    "id": "c4pl1",
    "name": "Welcome to the course",
    "hours": "5:35",
    "videoUrl": "https://www.radiantmediaplayer.com/media/bbb-360p.mp4"
  }, {
    "id": "c4pl2",
    "name": "Web assembly introduction",
    "hours": "19:04",
    "videoUrl": "http://commondatastorage.googleapis.com/gtv-videos-bucket/sample/ElephantsDream.mp4"
  }, {
    "id": "c4pl3",
    "name": "Design - Flexbox",
    "hours": "5:35",
    "videoUrl": "http://commondatastorage.googleapis.com/gtv-videos-bucket/sample/ForBiggerBlazes.mp4"
  }, {
    "id": "c4pl4",
    "name": "Simple tag",
    "hours": "12:48",
    "videoUrl": "http://commondatastorage.googleapis.com/gtv-videos-bucket/sample/ForBiggerEscapes.mp4"
  }, {
    "id": "c4pl5",
    "name": "Advanced features",
    "hours": "37:54",
    "videoUrl": "http://commondatastorage.googleapis.com/gtv-videos-bucket/sample/ForBiggerFun.mp4"
  }]
}, {
  "id": "c4s2",
  "courseId": "c4",
  "name": "Section 2: Begin with Web assembly",
  "data": [{
    "id": "c4pl21",
    "name": "Welcome to the course",
    "hours": "5:35",
    "videoUrl": "https://www.radiantmediaplayer.com/media/bbb-360p.mp4"
  }, {
    "id": "c4pl22",
    "name": "Web assembly introduction",
    "hours": "19:04",
    "videoUrl": "http://commondatastorage.googleapis.com/gtv-videos-bucket/sample/ElephantsDream.mp4"
  }, {
    "id": "c4p23",
    "name": "Design - Flexbox",
    "hours": "5:35",
    "videoUrl": "http://commondatastorage.googleapis.com/gtv-videos-bucket/sample/ForBiggerBlazes.mp4"
  }, {
    "id": "c4p24",
    "name": "Simple tag",
    "hours": "12:48",
    "videoUrl": "http://commondatastorage.googleapis.com/gtv-videos-bucket/sample/ForBiggerEscapes.mp4"
  }, {
    "id": "c4p25",
    "name": "Advanced features",
    "hours": "37:54",
    "videoUrl": "http://commondatastorage.googleapis.com/gtv-videos-bucket/sample/ForBiggerFun.mp4"
  }]
}, {
  "id": "c5s1",
  "courseId": "c5",
  "name": "Section 1: Welcome to React native",
  "data": [{
    "id": "c5pl1",
    "name": "Welcome to the course",
    "hours": "5:35",
    "videoUrl": "https://www.radiantmediaplayer.com/media/bbb-360p.mp4"
  }, {
    "id": "c5pl2",
    "name": "React native introduction",
    "hours": "19:04",
    "videoUrl": "http://commondatastorage.googleapis.com/gtv-videos-bucket/sample/ElephantsDream.mp4"
  }, {
    "id": "c5pl3",
    "name": "Design - Flexbox",
    "hours": "5:35",
    "videoUrl": "http://commondatastorage.googleapis.com/gtv-videos-bucket/sample/ForBiggerBlazes.mp4"
  }, {
    "id": "c5pl4",
    "name": "Simple tag",
    "hours": "12:48",
    "videoUrl": "http://commondatastorage.googleapis.com/gtv-videos-bucket/sample/ForBiggerEscapes.mp4"
  }, {
    "id": "c5pl5",
    "name": "Advanced features",
    "hours": "37:54",
    "videoUrl": "http://commondatastorage.googleapis.com/gtv-videos-bucket/sample/ForBiggerFun.mp4"
  }]
}, {
  "id": "c5s2",
  "courseId": "c5",
  "name": "Section 2: Begin with React native",
  "data": [{
    "id": "c5pl21",
    "name": "Welcome to the course",
    "hours": "5:35",
    "videoUrl": "https://www.radiantmediaplayer.com/media/bbb-360p.mp4"
  }, {
    "id": "c5pl22",
    "name": "React native introduction",
    "hours": "19:04",
    "videoUrl": "http://commondatastorage.googleapis.com/gtv-videos-bucket/sample/ElephantsDream.mp4"
  }, {
    "id": "c5p23",
    "name": "Design - Flexbox",
    "hours": "5:35",
    "videoUrl": "http://commondatastorage.googleapis.com/gtv-videos-bucket/sample/ForBiggerBlazes.mp4"
  }, {
    "id": "c5p24",
    "name": "Simple tag",
    "hours": "12:48",
    "videoUrl": "http://commondatastorage.googleapis.com/gtv-videos-bucket/sample/ForBiggerEscapes.mp4"
  }, {
    "id": "c5p25",
    "name": "Advanced features",
    "hours": "37:54",
    "videoUrl": "http://commondatastorage.googleapis.com/gtv-videos-bucket/sample/ForBiggerFun.mp4"
  }]
}, {
  "id": "c6s1",
  "courseId": "c6",
  "name": "Section 1: Welcome to Android",
  "data": [{
    "id": "c6pl1",
    "name": "Welcome to the course",
    "hours": "5:35",
    "videoUrl": "https://www.radiantmediaplayer.com/media/bbb-360p.mp4"
  }, {
    "id": "c6pl2",
    "name": "Android introduction",
    "hours": "19:04",
    "videoUrl": "http://commondatastorage.googleapis.com/gtv-videos-bucket/sample/ElephantsDream.mp4"
  }, {
    "id": "c6pl3",
    "name": "Design - Flexbox",
    "hours": "5:35",
    "videoUrl": "http://commondatastorage.googleapis.com/gtv-videos-bucket/sample/ForBiggerBlazes.mp4"
  }, {
    "id": "c6pl4",
    "name": "Simple tag",
    "hours": "12:48",
    "videoUrl": "http://commondatastorage.googleapis.com/gtv-videos-bucket/sample/ForBiggerEscapes.mp4"
  }, {
    "id": "c6pl5",
    "name": "Advanced features",
    "hours": "37:54",
    "videoUrl": "http://commondatastorage.googleapis.com/gtv-videos-bucket/sample/ForBiggerFun.mp4"
  }]
}, {
  "id": "c6s2",
  "courseId": "c6",
  "name": "Section 2: Begin with Android",
  "data": [{
    "id": "c6pl21",
    "name": "Welcome to the course",
    "hours": "5:35",
    "videoUrl": "https://www.radiantmediaplayer.com/media/bbb-360p.mp4"
  }, {
    "id": "c6pl22",
    "name": "Android introduction",
    "hours": "19:04",
    "videoUrl": "http://commondatastorage.googleapis.com/gtv-videos-bucket/sample/ElephantsDream.mp4"
  }, {
    "id": "c6p23",
    "name": "Design - Flexbox",
    "hours": "5:35",
    "videoUrl": "http://commondatastorage.googleapis.com/gtv-videos-bucket/sample/ForBiggerBlazes.mp4"
  }, {
    "id": "c6p24",
    "name": "Simple tag",
    "hours": "12:48",
    "videoUrl": "http://commondatastorage.googleapis.com/gtv-videos-bucket/sample/ForBiggerEscapes.mp4"
  }, {
    "id": "c6p25",
    "name": "Advanced features",
    "hours": "37:54",
    "videoUrl": "http://commondatastorage.googleapis.com/gtv-videos-bucket/sample/ForBiggerFun.mp4"
  }]
}, {
  "id": "c7s1",
  "courseId": "c7",
  "name": "Section 1: Welcome to iOS",
  "data": [{
    "id": "c7pl1",
    "name": "Welcome to the course",
    "hours": "5:35",
    "videoUrl": "https://www.radiantmediaplayer.com/media/bbb-360p.mp4"
  }, {
    "id": "c7pl2",
    "name": "iOS introduction",
    "hours": "19:04",
    "videoUrl": "http://commondatastorage.googleapis.com/gtv-videos-bucket/sample/ElephantsDream.mp4"
  }, {
    "id": "c7pl3",
    "name": "Design - Flexbox",
    "hours": "5:35",
    "videoUrl": "http://commondatastorage.googleapis.com/gtv-videos-bucket/sample/ForBiggerBlazes.mp4"
  }, {
    "id": "c7pl4",
    "name": "Simple tag",
    "hours": "12:48",
    "videoUrl": "http://commondatastorage.googleapis.com/gtv-videos-bucket/sample/ForBiggerEscapes.mp4"
  }, {
    "id": "c7pl5",
    "name": "Advanced features",
    "hours": "37:54",
    "videoUrl": "http://commondatastorage.googleapis.com/gtv-videos-bucket/sample/ForBiggerFun.mp4"
  }]
}, {
  "id": "c7s2",
  "courseId": "c7",
  "name": "Section 2: Begin with iOS",
  "data": [{
    "id": "c7pl21",
    "name": "Welcome to the course",
    "hours": "5:35",
    "videoUrl": "https://www.radiantmediaplayer.com/media/bbb-360p.mp4"
  }, {
    "id": "c7pl22",
    "name": "iOS introduction",
    "hours": "19:04",
    "videoUrl": "http://commondatastorage.googleapis.com/gtv-videos-bucket/sample/ElephantsDream.mp4"
  }, {
    "id": "c7p23",
    "name": "Design - Flexbox",
    "hours": "5:35",
    "videoUrl": "http://commondatastorage.googleapis.com/gtv-videos-bucket/sample/ForBiggerBlazes.mp4"
  }, {
    "id": "c7p24",
    "name": "Simple tag",
    "hours": "12:48",
    "videoUrl": "http://commondatastorage.googleapis.com/gtv-videos-bucket/sample/ForBiggerEscapes.mp4"
  }, {
    "id": "c7p25",
    "name": "Advanced features",
    "hours": "37:54",
    "videoUrl": "http://commondatastorage.googleapis.com/gtv-videos-bucket/sample/ForBiggerFun.mp4"
  }]
}, {
  "id": "c8s1",
  "courseId": "c8",
  "name": "Section 1: Welcome to Ethical haking",
  "data": [{
    "id": "c8pl1",
    "name": "Welcome to the course",
    "hours": "5:35",
    "videoUrl": "https://www.radiantmediaplayer.com/media/bbb-360p.mp4"
  }, {
    "id": "c8pl2",
    "name": "Ethical haking introduction",
    "hours": "19:04",
    "videoUrl": "http://commondatastorage.googleapis.com/gtv-videos-bucket/sample/ElephantsDream.mp4"
  }, {
    "id": "c8pl3",
    "name": "Design - Flexbox",
    "hours": "5:35",
    "videoUrl": "http://commondatastorage.googleapis.com/gtv-videos-bucket/sample/ForBiggerBlazes.mp4"
  }, {
    "id": "c8pl4",
    "name": "Simple tag",
    "hours": "12:48",
    "videoUrl": "http://commondatastorage.googleapis.com/gtv-videos-bucket/sample/ForBiggerEscapes.mp4"
  }, {
    "id": "c8pl5",
    "name": "Advanced features",
    "hours": "37:54",
    "videoUrl": "http://commondatastorage.googleapis.com/gtv-videos-bucket/sample/ForBiggerFun.mp4"
  }]
}, {
  "id": "c8s2",
  "courseId": "c8",
  "name": "Section 2: Begin with Ethical haking",
  "data": [{
    "id": "c8pl21",
    "name": "Welcome to the course",
    "hours": "5:35",
    "videoUrl": "https://www.radiantmediaplayer.com/media/bbb-360p.mp4"
  }, {
    "id": "c8pl22",
    "name": "Ethical haking introduction",
    "hours": "19:04",
    "videoUrl": "http://commondatastorage.googleapis.com/gtv-videos-bucket/sample/ElephantsDream.mp4"
  }, {
    "id": "c8p23",
    "name": "Design - Flexbox",
    "hours": "5:35",
    "videoUrl": "http://commondatastorage.googleapis.com/gtv-videos-bucket/sample/ForBiggerBlazes.mp4"
  }, {
    "id": "c8p24",
    "name": "Simple tag",
    "hours": "12:48",
    "videoUrl": "http://commondatastorage.googleapis.com/gtv-videos-bucket/sample/ForBiggerEscapes.mp4"
  }, {
    "id": "c8p25",
    "name": "Advanced features",
    "hours": "37:54",
    "videoUrl": "http://commondatastorage.googleapis.com/gtv-videos-bucket/sample/ForBiggerFun.mp4"
  }]
}, {
  "id": "c9s1",
  "courseId": "c9",
  "name": "Section 1: Welcome to Network securiy",
  "data": [{
    "id": "c9pl1",
    "name": "Welcome to the course",
    "hours": "5:35",
    "videoUrl": "https://www.radiantmediaplayer.com/media/bbb-360p.mp4"
  }, {
    "id": "c9pl2",
    "name": "Network securiy introduction",
    "hours": "19:04",
    "videoUrl": "http://commondatastorage.googleapis.com/gtv-videos-bucket/sample/ElephantsDream.mp4"
  }, {
    "id": "c9pl3",
    "name": "Design - Flexbox",
    "hours": "5:35",
    "videoUrl": "http://commondatastorage.googleapis.com/gtv-videos-bucket/sample/ForBiggerBlazes.mp4"
  }, {
    "id": "c9pl4",
    "name": "Simple tag",
    "hours": "12:48",
    "videoUrl": "http://commondatastorage.googleapis.com/gtv-videos-bucket/sample/ForBiggerEscapes.mp4"
  }, {
    "id": "c9pl5",
    "name": "Advanced features",
    "hours": "37:54",
    "videoUrl": "http://commondatastorage.googleapis.com/gtv-videos-bucket/sample/ForBiggerFun.mp4"
  }]
}, {
  "id": "c9s2",
  "courseId": "c9",
  "name": "Section 2: Begin with Network securiy",
  "data": [{
    "id": "c9pl21",
    "name": "Welcome to the course",
    "hours": "5:35",
    "videoUrl": "https://www.radiantmediaplayer.com/media/bbb-360p.mp4"
  }, {
    "id": "c9pl22",
    "name": "Network securiy introduction",
    "hours": "19:04",
    "videoUrl": "http://commondatastorage.googleapis.com/gtv-videos-bucket/sample/ElephantsDream.mp4"
  }, {
    "id": "c9p23",
    "name": "Design - Flexbox",
    "hours": "5:35",
    "videoUrl": "http://commondatastorage.googleapis.com/gtv-videos-bucket/sample/ForBiggerBlazes.mp4"
  }, {
    "id": "c9p24",
    "name": "Simple tag",
    "hours": "12:48",
    "videoUrl": "http://commondatastorage.googleapis.com/gtv-videos-bucket/sample/ForBiggerEscapes.mp4"
  }, {
    "id": "c9p25",
    "name": "Advanced features",
    "hours": "37:54",
    "videoUrl": "http://commondatastorage.googleapis.com/gtv-videos-bucket/sample/ForBiggerFun.mp4"
  }]
}, {
  "id": "c10s1",
  "courseId": "c10",
  "name": "Section 1: Welcome to Security testing",
  "data": [{
    "id": "c10pl1",
    "name": "Welcome to the course",
    "hours": "5:35",
    "videoUrl": "https://www.radiantmediaplayer.com/media/bbb-360p.mp4"
  }, {
    "id": "c10pl2",
    "name": "Security testing introduction",
    "hours": "19:04",
    "videoUrl": "http://commondatastorage.googleapis.com/gtv-videos-bucket/sample/ElephantsDream.mp4"
  }, {
    "id": "c10pl3",
    "name": "Design - Flexbox",
    "hours": "5:35",
    "videoUrl": "http://commondatastorage.googleapis.com/gtv-videos-bucket/sample/ForBiggerBlazes.mp4"
  }, {
    "id": "c10pl4",
    "name": "Simple tag",
    "hours": "12:48",
    "videoUrl": "http://commondatastorage.googleapis.com/gtv-videos-bucket/sample/ForBiggerEscapes.mp4"
  }, {
    "id": "c10pl5",
    "name": "Advanced features",
    "hours": "37:54",
    "videoUrl": "http://commondatastorage.googleapis.com/gtv-videos-bucket/sample/ForBiggerFun.mp4"
  }]
}, {
  "id": "c10s2",
  "courseId": "c10",
  "name": "Section 2: Begin with Security testing",
  "data": [{
    "id": "c10pl21",
    "name": "Welcome to the course",
    "hours": "5:35",
    "videoUrl": "https://www.radiantmediaplayer.com/media/bbb-360p.mp4"
  }, {
    "id": "c10pl22",
    "name": "Security testing introduction",
    "hours": "19:04",
    "videoUrl": "http://commondatastorage.googleapis.com/gtv-videos-bucket/sample/ElephantsDream.mp4"
  }, {
    "id": "c10p23",
    "name": "Design - Flexbox",
    "hours": "5:35",
    "videoUrl": "http://commondatastorage.googleapis.com/gtv-videos-bucket/sample/ForBiggerBlazes.mp4"
  }, {
    "id": "c10p24",
    "name": "Simple tag",
    "hours": "12:48",
    "videoUrl": "http://commondatastorage.googleapis.com/gtv-videos-bucket/sample/ForBiggerEscapes.mp4"
  }, {
    "id": "c10p25",
    "name": "Advanced features",
    "hours": "37:54",
    "videoUrl": "http://commondatastorage.googleapis.com/gtv-videos-bucket/sample/ForBiggerFun.mp4"
  }]
}]